{\rtf1\adeflang1025\ansi\ansicpg936\uc2\adeff31507\deff0\stshfdbch31505\stshfloch31506\stshfhich31506\stshfbi31507\deflang1033\deflangfe2052\themelang1033\themelangfe2052\themelangcs0{\fonttbl{\f2\fbidi \fmodern\fcharset0\fprq1{\*\panose 02070309020205020404}Courier New;}
{\f13\fbidi \fnil\fcharset134\fprq2{\*\panose 02010600030101010101}\'cb\'ce\'cc\'e5{\*\falt SimSun};}{\f34\fbidi \froman\fcharset1\fprq2{\*\panose 02040503050406030204}Cambria Math;}
{\f38\fbidi \fnil\fcharset134\fprq2{\*\panose 02010600030101010101}@\'cb\'ce\'cc\'e5;}{\flomajor\f31500\fbidi \froman\fcharset0\fprq2{\*\panose 02020603050405020304}Times New Roman;}
{\fdbmajor\f31501\fbidi \fnil\fcharset134\fprq2{\*\panose 02010600030101010101}\'cb\'ce\'cc\'e5{\*\falt SimSun};}{\fhimajor\f31502\fbidi \froman\fcharset0\fprq2{\*\panose 02040503050406030204}Cambria;}
{\fbimajor\f31503\fbidi \froman\fcharset0\fprq2{\*\panose 02020603050405020304}Times New Roman;}{\flominor\f31504\fbidi \froman\fcharset0\fprq2{\*\panose 02020603050405020304}Times New Roman;}
{\fdbminor\f31505\fbidi \fnil\fcharset134\fprq2{\*\panose 02010600030101010101}\'cb\'ce\'cc\'e5{\*\falt SimSun};}{\fhiminor\f31506\fbidi \fswiss\fcharset0\fprq2{\*\panose 020f0502020204030204}Calibri;}
{\fbiminor\f31507\fbidi \froman\fcharset0\fprq2{\*\panose 02020603050405020304}Times New Roman;}{\f59\fbidi \fmodern\fcharset238\fprq1 Courier New CE;}{\f60\fbidi \fmodern\fcharset204\fprq1 Courier New Cyr;}
{\f62\fbidi \fmodern\fcharset161\fprq1 Courier New Greek;}{\f63\fbidi \fmodern\fcharset162\fprq1 Courier New Tur;}{\f64\fbidi \fmodern\fcharset177\fprq1 Courier New (Hebrew);}{\f65\fbidi \fmodern\fcharset178\fprq1 Courier New (Arabic);}
{\f66\fbidi \fmodern\fcharset186\fprq1 Courier New Baltic;}{\f67\fbidi \fmodern\fcharset163\fprq1 Courier New (Vietnamese);}{\f171\fbidi \fnil\fcharset0\fprq2 SimSun Western{\*\falt SimSun};}{\f421\fbidi \fnil\fcharset0\fprq2 @\'cb\'ce\'cc\'e5 Western;}
{\flomajor\f31508\fbidi \froman\fcharset238\fprq2 Times New Roman CE;}{\flomajor\f31509\fbidi \froman\fcharset204\fprq2 Times New Roman Cyr;}{\flomajor\f31511\fbidi \froman\fcharset161\fprq2 Times New Roman Greek;}
{\flomajor\f31512\fbidi \froman\fcharset162\fprq2 Times New Roman Tur;}{\flomajor\f31513\fbidi \froman\fcharset177\fprq2 Times New Roman (Hebrew);}{\flomajor\f31514\fbidi \froman\fcharset178\fprq2 Times New Roman (Arabic);}
{\flomajor\f31515\fbidi \froman\fcharset186\fprq2 Times New Roman Baltic;}{\flomajor\f31516\fbidi \froman\fcharset163\fprq2 Times New Roman (Vietnamese);}{\fdbmajor\f31520\fbidi \fnil\fcharset0\fprq2 SimSun Western{\*\falt SimSun};}
{\fhimajor\f31528\fbidi \froman\fcharset238\fprq2 Cambria CE;}{\fhimajor\f31529\fbidi \froman\fcharset204\fprq2 Cambria Cyr;}{\fhimajor\f31531\fbidi \froman\fcharset161\fprq2 Cambria Greek;}{\fhimajor\f31532\fbidi \froman\fcharset162\fprq2 Cambria Tur;}
{\fhimajor\f31535\fbidi \froman\fcharset186\fprq2 Cambria Baltic;}{\fhimajor\f31536\fbidi \froman\fcharset163\fprq2 Cambria (Vietnamese);}{\fbimajor\f31538\fbidi \froman\fcharset238\fprq2 Times New Roman CE;}
{\fbimajor\f31539\fbidi \froman\fcharset204\fprq2 Times New Roman Cyr;}{\fbimajor\f31541\fbidi \froman\fcharset161\fprq2 Times New Roman Greek;}{\fbimajor\f31542\fbidi \froman\fcharset162\fprq2 Times New Roman Tur;}
{\fbimajor\f31543\fbidi \froman\fcharset177\fprq2 Times New Roman (Hebrew);}{\fbimajor\f31544\fbidi \froman\fcharset178\fprq2 Times New Roman (Arabic);}{\fbimajor\f31545\fbidi \froman\fcharset186\fprq2 Times New Roman Baltic;}
{\fbimajor\f31546\fbidi \froman\fcharset163\fprq2 Times New Roman (Vietnamese);}{\flominor\f31548\fbidi \froman\fcharset238\fprq2 Times New Roman CE;}{\flominor\f31549\fbidi \froman\fcharset204\fprq2 Times New Roman Cyr;}
{\flominor\f31551\fbidi \froman\fcharset161\fprq2 Times New Roman Greek;}{\flominor\f31552\fbidi \froman\fcharset162\fprq2 Times New Roman Tur;}{\flominor\f31553\fbidi \froman\fcharset177\fprq2 Times New Roman (Hebrew);}
{\flominor\f31554\fbidi \froman\fcharset178\fprq2 Times New Roman (Arabic);}{\flominor\f31555\fbidi \froman\fcharset186\fprq2 Times New Roman Baltic;}{\flominor\f31556\fbidi \froman\fcharset163\fprq2 Times New Roman (Vietnamese);}
{\fdbminor\f31560\fbidi \fnil\fcharset0\fprq2 SimSun Western{\*\falt SimSun};}{\fhiminor\f31568\fbidi \fswiss\fcharset238\fprq2 Calibri CE;}{\fhiminor\f31569\fbidi \fswiss\fcharset204\fprq2 Calibri Cyr;}
{\fhiminor\f31571\fbidi \fswiss\fcharset161\fprq2 Calibri Greek;}{\fhiminor\f31572\fbidi \fswiss\fcharset162\fprq2 Calibri Tur;}{\fhiminor\f31575\fbidi \fswiss\fcharset186\fprq2 Calibri Baltic;}
{\fhiminor\f31576\fbidi \fswiss\fcharset163\fprq2 Calibri (Vietnamese);}{\fbiminor\f31578\fbidi \froman\fcharset238\fprq2 Times New Roman CE;}{\fbiminor\f31579\fbidi \froman\fcharset204\fprq2 Times New Roman Cyr;}
{\fbiminor\f31581\fbidi \froman\fcharset161\fprq2 Times New Roman Greek;}{\fbiminor\f31582\fbidi \froman\fcharset162\fprq2 Times New Roman Tur;}{\fbiminor\f31583\fbidi \froman\fcharset177\fprq2 Times New Roman (Hebrew);}
{\fbiminor\f31584\fbidi \froman\fcharset178\fprq2 Times New Roman (Arabic);}{\fbiminor\f31585\fbidi \froman\fcharset186\fprq2 Times New Roman Baltic;}{\fbiminor\f31586\fbidi \froman\fcharset163\fprq2 Times New Roman (Vietnamese);}
{\f39\fbidi \froman\fcharset238\fprq2 Times New Roman CE;}{\f40\fbidi \froman\fcharset204\fprq2 Times New Roman Cyr;}{\f42\fbidi \froman\fcharset161\fprq2 Times New Roman Greek;}{\f43\fbidi \froman\fcharset162\fprq2 Times New Roman Tur;}
{\f44\fbidi \froman\fcharset177\fprq2 Times New Roman (Hebrew);}{\f45\fbidi \froman\fcharset178\fprq2 Times New Roman (Arabic);}{\f46\fbidi \froman\fcharset186\fprq2 Times New Roman Baltic;}
{\f47\fbidi \froman\fcharset163\fprq2 Times New Roman (Vietnamese);}}{\colortbl;\red0\green0\blue0;\red0\green0\blue255;\red0\green255\blue255;\red0\green255\blue0;\red255\green0\blue255;\red255\green0\blue0;\red255\green255\blue0;
\red255\green255\blue255;\red0\green0\blue128;\red0\green128\blue128;\red0\green128\blue0;\red128\green0\blue128;\red128\green0\blue0;\red128\green128\blue0;\red128\green128\blue128;\red192\green192\blue192;}{\*\defchp 
\fs21\kerning2\loch\af31506\hich\af31506\dbch\af31505 }{\*\defpap \ql \li0\ri0\widctlpar\wrapdefault\aspalpha\aspnum\faauto\adjustright\rin0\lin0\itap0 }\noqfpromote {\stylesheet{
\qj \li0\ri0\nowidctlpar\wrapdefault\aspalpha\aspnum\faauto\adjustright\rin0\lin0\itap0 \rtlch\fcs1 \af31507\afs22\alang1025 \ltrch\fcs0 \fs21\lang1033\langfe2052\kerning2\loch\f31506\hich\af31506\dbch\af31505\cgrid\langnp1033\langfenp2052 
\snext0 \sqformat \spriority0 Normal;}{\*\cs10 \additive \ssemihidden \sunhideused \spriority1 Default Paragraph Font;}{\*
\ts11\tsrowd\trftsWidthB3\trpaddl108\trpaddr108\trpaddfl3\trpaddft3\trpaddfb3\trpaddfr3\trcbpat1\trcfpat1\tblind0\tblindtype3\tsvertalt\tsbrdrt\tsbrdrl\tsbrdrb\tsbrdrr\tsbrdrdgl\tsbrdrdgr\tsbrdrh\tsbrdrv 
\ql \li0\ri0\widctlpar\wrapdefault\aspalpha\aspnum\faauto\adjustright\rin0\lin0\itap0 \rtlch\fcs1 \af31507\afs22\alang1025 \ltrch\fcs0 \fs21\lang1033\langfe2052\kerning2\loch\f31506\hich\af31506\dbch\af31505\cgrid\langnp1033\langfenp2052 
\snext11 \ssemihidden \sunhideused Normal Table;}}{\*\rsidtbl \rsid6173594\rsid9055683}{\mmathPr\mmathFont34\mbrkBin0\mbrkBinSub0\msmallFrac0\mdispDef1\mlMargin0\mrMargin0\mdefJc1\mwrapIndent1440\mintLim0\mnaryLim1}{\info{\operator www.6-6.cn}
{\creatim\yr2018\mo2\dy27\hr9\min58}{\revtim\yr2018\mo2\dy27\hr10\min1}{\version2}{\edmins3}{\nofpages17}{\nofwords8035}{\nofchars45804}{\nofcharsws53732}{\vern49255}}{\*\xmlnstbl {\xmlns1 http://schemas.microsoft.com/office/word/2003/wordml}}
\paperw12240\paperh15840\margl1800\margr1800\margt1440\margb1440\gutter0\ltrsect 
\ftnbj\aenddoc\trackmoves0\trackformatting1\donotembedsysfont0\relyonvml0\donotembedlingdata1\grfdocevents0\validatexml0\showplaceholdtext0\ignoremixedcontent0\saveinvalidxml0\showxmlerrors0\horzdoc\dghspace120\dgvspace120\dghorigin1701\dgvorigin1984
\dghshow0\dgvshow3\jcompress\viewkind1\viewscale100\rsidroot6173594 \fet0{\*\wgrffmtfilter 2450}\ilfomacatclnup0\ltrpar \sectd \ltrsect\linex0\sectdefaultcl\sftnbj {\*\pnseclvl1\pnucrm\pnstart1\pnindent720\pnhang {\pntxta \dbch .}}{\*\pnseclvl2
\pnucltr\pnstart1\pnindent720\pnhang {\pntxta \dbch .}}{\*\pnseclvl3\pndec\pnstart1\pnindent720\pnhang {\pntxta \dbch .}}{\*\pnseclvl4\pnlcltr\pnstart1\pnindent720\pnhang {\pntxta \dbch )}}{\*\pnseclvl5\pndec\pnstart1\pnindent720\pnhang {\pntxtb \dbch (}
{\pntxta \dbch )}}{\*\pnseclvl6\pnlcltr\pnstart1\pnindent720\pnhang {\pntxtb \dbch (}{\pntxta \dbch )}}{\*\pnseclvl7\pnlcrm\pnstart1\pnindent720\pnhang {\pntxtb \dbch (}{\pntxta \dbch )}}{\*\pnseclvl8\pnlcltr\pnstart1\pnindent720\pnhang {\pntxtb \dbch (}
{\pntxta \dbch )}}{\*\pnseclvl9\pnlcrm\pnstart1\pnindent720\pnhang {\pntxtb \dbch (}{\pntxta \dbch )}}\pard\plain \ltrpar\ql \li0\ri0\nowidctlpar\wrapdefault\faauto\rin0\lin0\itap0 \rtlch\fcs1 \af31507\afs22\alang1025 \ltrch\fcs0 
\fs21\lang1033\langfe2052\kerning2\loch\af31506\hich\af31506\dbch\af31505\cgrid\langnp1033\langfenp2052 {\rtlch\fcs1 \ab\af2 \ltrch\fcs0 \b\f2\fs22\cf1\kerning0\insrsid9055683\charrsid6173594 \hich\af2\dbch\af31505\loch\f2 Commix 1.4 Communication Data

\par \hich\af2\dbch\af31505\loch\f2 Port:COM5
\par \hich\af2\dbch\af31505\loch\f2 BaudRate:9600
\par \hich\af2\dbch\af31505\loch\f2 DataBits:8
\par \hich\af2\dbch\af31505\loch\f2 Parity:None
\par \hich\af2\dbch\af31505\loch\f2 StopBits:1
\par \hich\af2\dbch\af31505\loch\f2 Green: Sent Data; Blue: Received Data
\par 
\par }{\rtlch\fcs1 \ab\af2 \ltrch\fcs0 \b\f2\fs22\cf2\lang2052\langfe2052\kerning0\langnp2052\insrsid9055683 \hich\af2\dbch\af31505\loch\f2 $GPRMC,010230.00,A,3211.05477,N,11925.27324,E,0.893,,270218,,,A*72}{\rtlch\fcs1 \ab\af2 \ltrch\fcs0 
\b\f2\fs22\cf5\lang2052\langfe2052\kerning0\langnp2052\insrsid9055683 \\\hich\af2\dbch\af31505\loch\f2 CR\\LF}{\rtlch\fcs1 \ab\af2 \ltrch\fcs0 \b\f2\fs22\cf2\lang2052\langfe2052\kerning0\langnp2052\insrsid9055683 \hich\af2\dbch\af31505\loch\f2 
$GPVTG,,T,,M,0.893,N,1.655,K,A*26}{\rtlch\fcs1 \ab\af2 \ltrch\fcs0 \b\f2\fs22\cf5\lang2052\langfe2052\kerning0\langnp2052\insrsid9055683 \\\hich\af2\dbch\af31505\loch\f2 CR\\LF}{\rtlch\fcs1 \ab\af2 \ltrch\fcs0 
\b\f2\fs22\cf2\lang2052\langfe2052\kerning0\langnp2052\insrsid9055683 \hich\af2\dbch\af31505\loch\f2 $GPGGA,010230.00,3211.05477,N,11925.27324,E,1,04,5.87,871.9,M,4.3,M,,*6C}{\rtlch\fcs1 \ab\af2 \ltrch\fcs0 
\b\f2\fs22\cf5\lang2052\langfe2052\kerning0\langnp2052\insrsid9055683 \\\hich\af2\dbch\af31505\loch\f2 CR\\LF}{\rtlch\fcs1 \ab\af2 \ltrch\fcs0 \b\f2\fs22\cf2\lang2052\langfe2052\kerning0\langnp2052\insrsid9055683 \hich\af2\dbch\af31505\loch\f2 
$GPGSA,A,3,32,10,24,25,,,,,,,,,10.16,5.87,8.29*3\hich\af2\dbch\af31505\loch\f2 C}{\rtlch\fcs1 \ab\af2 \ltrch\fcs0 \b\f2\fs22\cf5\lang2052\langfe2052\kerning0\langnp2052\insrsid9055683 \\\hich\af2\dbch\af31505\loch\f2 CR\\LF}{\rtlch\fcs1 \ab\af2 
\ltrch\fcs0 \b\f2\fs22\cf2\lang2052\langfe2052\kerning0\langnp2052\insrsid9055683 \hich\af2\dbch\af31505\loch\f2 $GPGSV,2,1,07,10,38,318,41,18,72,328,,20,45,128,08,21,41,225,15*7A}{\rtlch\fcs1 \ab\af2 \ltrch\fcs0 
\b\f2\fs22\cf5\lang2052\langfe2052\kerning0\langnp2052\insrsid9055683 \\\hich\af2\dbch\af31505\loch\f2 CR\\LF}{\rtlch\fcs1 \ab\af2 \ltrch\fcs0 \b\f2\fs22\cf2\lang2052\langfe2052\kerning0\langnp2052\insrsid9055683 \hich\af2\dbch\af31505\loch\f2 
$GPGSV,2,2,07,24,68,049,29,25,09,169,28,32,19,277,34*46}{\rtlch\fcs1 \ab\af2 \ltrch\fcs0 \b\f2\fs22\cf5\lang2052\langfe2052\kerning0\langnp2052\insrsid9055683 \\\hich\af2\dbch\af31505\loch\f2 CR\\LF}{\rtlch\fcs1 \ab\af2 \ltrch\fcs0 
\b\f2\fs22\cf2\lang2052\langfe2052\kerning0\langnp2052\insrsid9055683 \hich\af2\dbch\af31505\loch\f2 $GPGLL,3211.05477,N,11925.27324,E,010230.00,A,A*67}{\rtlch\fcs1 \ab\af2 \ltrch\fcs0 \b\f2\fs22\cf5\lang2052\langfe2052\kerning0\langnp2052\insrsid9055683 
\\\hich\af2\dbch\af31505\loch\f2 CR\\LF}{\rtlch\fcs1 \ab\af2 \ltrch\fcs0 \b\f2\fs22\cf2\lang2052\langfe2052\kerning0\langnp2052\insrsid9055683 \hich\af2\dbch\af31505\loch\f2 $GPRMC,010231.00,A,3211.05488,N,11925.27342,E,0.913,,270218,
\hich\af2\dbch\af31505\loch\f2 ,,A*7A}{\rtlch\fcs1 \ab\af2 \ltrch\fcs0 \b\f2\fs22\cf5\lang2052\langfe2052\kerning0\langnp2052\insrsid9055683 \\\hich\af2\dbch\af31505\loch\f2 CR\\LF}{\rtlch\fcs1 \ab\af2 \ltrch\fcs0 
\b\f2\fs22\cf2\lang2052\langfe2052\kerning0\langnp2052\insrsid9055683 \hich\af2\dbch\af31505\loch\f2 $GPVTG,,T,,M,0.913,N,1.690,K,A*26}{\rtlch\fcs1 \ab\af2 \ltrch\fcs0 \b\f2\fs22\cf5\lang2052\langfe2052\kerning0\langnp2052\insrsid9055683 \\
\hich\af2\dbch\af31505\loch\f2 CR\\LF}{\rtlch\fcs1 \ab\af2 \ltrch\fcs0 \b\f2\fs22\cf2\lang2052\langfe2052\kerning0\langnp2052\insrsid9055683 \hich\af2\dbch\af31505\loch\f2 $GPGGA,010231.00,3211.05488,N,11925.27342,E,1,04,5.88,872.1,M,4.3,M,,*69}{
\rtlch\fcs1 \ab\af2 \ltrch\fcs0 \b\f2\fs22\cf5\lang2052\langfe2052\kerning0\langnp2052\insrsid9055683 \\\hich\af2\dbch\af31505\loch\f2 CR\\LF}{\rtlch\fcs1 \ab\af2 \ltrch\fcs0 \b\f2\fs22\cf2\lang2052\langfe2052\kerning0\langnp2052\insrsid9055683 
\hich\af2\dbch\af31505\loch\f2 $GPGSA,A,3,32,10,24,25,,,,,,,,,10.17,5.88,8.30*3A}{\rtlch\fcs1 \ab\af2 \ltrch\fcs0 \b\f2\fs22\cf5\lang2052\langfe2052\kerning0\langnp2052\insrsid9055683 \\\hich\af2\dbch\af31505\loch\f2 CR\\LF}{\rtlch\fcs1 \ab\af2 
\ltrch\fcs0 \b\f2\fs22\cf2\lang2052\langfe2052\kerning0\langnp2052\insrsid9055683 \hich\af2\dbch\af31505\loch\f2 $GPGSV,2,1,07,10,38,318,40,18,72,328,,20,45,128,08,21,41,225,15*7B}{\rtlch\fcs1 \ab\af2 \ltrch\fcs0 
\b\f2\fs22\cf5\lang2052\langfe2052\kerning0\langnp2052\insrsid9055683 \\\hich\af2\dbch\af31505\loch\f2 CR\\LF}{\rtlch\fcs1 \ab\af2 \ltrch\fcs0 \b\f2\fs22\cf2\lang2052\langfe2052\kerning0\langnp2052\insrsid9055683 \hich\af2\dbch\af31505\loch\f2 
$GPGSV,2,2,07,24,68,049,29,25,09,169,29,32,19,277,34*47}{\rtlch\fcs1 \ab\af2 \ltrch\fcs0 \b\f2\fs22\cf5\lang2052\langfe2052\kerning0\langnp2052\insrsid9055683 \\\hich\af2\dbch\af31505\loch\f2 CR\\LF}{\rtlch\fcs1 \ab\af2 \ltrch\fcs0 
\b\f2\fs22\cf2\lang2052\langfe2052\kerning0\langnp2052\insrsid9055683 \hich\af2\dbch\af31505\loch\f2 $GPGLL,3211.05488,N,11925.27342,E,010231.00,A,A*66}{\rtlch\fcs1 \ab\af2 \ltrch\fcs0 \b\f2\fs22\cf5\lang2052\langfe2052\kerning0\langnp2052\insrsid9055683 
\\\hich\af2\dbch\af31505\loch\f2 CR\\LF}{\rtlch\fcs1 \ab\af2 \ltrch\fcs0 \b\f2\fs22\cf2\lang2052\langfe2052\kerning0\langnp2052\insrsid9055683 \hich\af2\dbch\af31505\loch\f2 $GPRMC,010232.00,A,3211.05500,N,11925.27361,E,0.928,,270218,,,A*71}{\rtlch\fcs1 
\ab\af2 \ltrch\fcs0 \b\f2\fs22\cf5\lang2052\langfe2052\kerning0\langnp2052\insrsid9055683 \\\hich\af2\dbch\af31505\loch\f2 CR\\LF}{\rtlch\fcs1 \ab\af2 \ltrch\fcs0 \b\f2\fs22\cf2\lang2052\langfe2052\kerning0\langnp2052\insrsid9055683 
\hich\af2\dbch\af31505\loch\f2 $GPVTG,,T,,M,0.928,N,1.719,K,A*2E}{\rtlch\fcs1 \ab\af2 \ltrch\fcs0 \b\f2\fs22\cf5\lang2052\langfe2052\kerning0\langnp2052\insrsid9055683 \\\hich\af2\dbch\af31505\loch\f2 CR\\LF}{\rtlch\fcs1 \ab\af2 \ltrch\fcs0 
\b\f2\fs22\cf2\lang2052\langfe2052\kerning0\langnp2052\insrsid9055683 \hich\af2\dbch\af31505\loch\f2 $GPGGA,010232.00,3211.05500,\hich\af2\dbch\af31505\loch\f2 N,11925.27361,E,1,04,5.89,872.3,M,4.3,M,,*69}{\rtlch\fcs1 \ab\af2 \ltrch\fcs0 
\b\f2\fs22\cf5\lang2052\langfe2052\kerning0\langnp2052\insrsid9055683 \\\hich\af2\dbch\af31505\loch\f2 CR\\LF}{\rtlch\fcs1 \ab\af2 \ltrch\fcs0 \b\f2\fs22\cf2\lang2052\langfe2052\kerning0\langnp2052\insrsid9055683 \hich\af2\dbch\af31505\loch\f2 
$GPGSA,A,3,32,10,24,25,,,,,,,,,10.18,5.89,8.31*35}{\rtlch\fcs1 \ab\af2 \ltrch\fcs0 \b\f2\fs22\cf5\lang2052\langfe2052\kerning0\langnp2052\insrsid9055683 \\\hich\af2\dbch\af31505\loch\f2 CR\\LF}{\rtlch\fcs1 \ab\af2 \ltrch\fcs0 
\b\f2\fs22\cf2\lang2052\langfe2052\kerning0\langnp2052\insrsid9055683 \hich\af2\dbch\af31505\loch\f2 $GPGSV,2,1,07,10,38,318,41,18,72,328,,20,45,128,14,21,41,225,13*71}{\rtlch\fcs1 \ab\af2 \ltrch\fcs0 
\b\f2\fs22\cf5\lang2052\langfe2052\kerning0\langnp2052\insrsid9055683 \\\hich\af2\dbch\af31505\loch\f2 CR\\LF}{\rtlch\fcs1 \ab\af2 \ltrch\fcs0 \b\f2\fs22\cf2\lang2052\langfe2052\kerning0\langnp2052\insrsid9055683 \hich\af2\dbch\af31505\loch\f2 
$GPGSV,2,2,07,24,68,049,29,25,09,169,28,32,19,277,34*46}{\rtlch\fcs1 \ab\af2 \ltrch\fcs0 \b\f2\fs22\cf5\lang2052\langfe2052\kerning0\langnp2052\insrsid9055683 \\\hich\af2\dbch\af31505\loch\f2 CR\\LF}{\rtlch\fcs1 \ab\af2 \ltrch\fcs0 
\b\f2\fs22\cf2\lang2052\langfe2052\kerning0\langnp2052\insrsid9055683 \hich\af2\dbch\af31505\loch\f2 $GPGLL,3211.05500,\hich\af2\dbch\af31505\loch\f2 N,11925.27361,E,010232.00,A,A*65}{\rtlch\fcs1 \ab\af2 \ltrch\fcs0 
\b\f2\fs22\cf5\lang2052\langfe2052\kerning0\langnp2052\insrsid9055683 \\\hich\af2\dbch\af31505\loch\f2 CR\\LF}{\rtlch\fcs1 \ab\af2 \ltrch\fcs0 \b\f2\fs22\cf2\lang2052\langfe2052\kerning0\langnp2052\insrsid9055683 \hich\af2\dbch\af31505\loch\f2 
$GPRMC,010233.00,A,3211.05501,N,11925.27367,E,1.009,,270218,,,A*7C}{\rtlch\fcs1 \ab\af2 \ltrch\fcs0 \b\f2\fs22\cf5\lang2052\langfe2052\kerning0\langnp2052\insrsid9055683 \\\hich\af2\dbch\af31505\loch\f2 CR\\LF}{\rtlch\fcs1 \ab\af2 \ltrch\fcs0 
\b\f2\fs22\cf2\lang2052\langfe2052\kerning0\langnp2052\insrsid9055683 \hich\af2\dbch\af31505\loch\f2 $GPVTG,,T,,M,1.009,N,1.869,K,A*2D}{\rtlch\fcs1 \ab\af2 \ltrch\fcs0 \b\f2\fs22\cf5\lang2052\langfe2052\kerning0\langnp2052\insrsid9055683 \\
\hich\af2\dbch\af31505\loch\f2 CR\\LF}{\rtlch\fcs1 \ab\af2 \ltrch\fcs0 \b\f2\fs22\cf2\lang2052\langfe2052\kerning0\langnp2052\insrsid9055683 \hich\af2\dbch\af31505\loch\f2 $GPGGA,010233.00,3211.05501,N,11925.27367,E,1,04,5.89,872.9,M,4.3,M,,*65}{
\rtlch\fcs1 \ab\af2 \ltrch\fcs0 \b\f2\fs22\cf5\lang2052\langfe2052\kerning0\langnp2052\insrsid9055683 \\\hich\af2\dbch\af31505\loch\f2 CR\\LF}{\rtlch\fcs1 \ab\af2 \ltrch\fcs0 \b\f2\fs22\cf2\lang2052\langfe2052\kerning0\langnp2052\insrsid9055683 
\hich\af2\dbch\af31505\loch\f2 $GPGSA,A,3,32,10,24,25,,,,,,,\hich\af2\dbch\af31505\loch\f2 ,,10.19,5.89,8.32*37}{\rtlch\fcs1 \ab\af2 \ltrch\fcs0 \b\f2\fs22\cf5\lang2052\langfe2052\kerning0\langnp2052\insrsid9055683 \\\hich\af2\dbch\af31505\loch\f2 CR\\LF}
{\rtlch\fcs1 \ab\af2 \ltrch\fcs0 \b\f2\fs22\cf2\lang2052\langfe2052\kerning0\langnp2052\insrsid9055683 \hich\af2\dbch\af31505\loch\f2 $GPGSV,2,1,07,10,38,318,41,18,72,328,,20,45,128,14,21,41,225,11*73}{\rtlch\fcs1 \ab\af2 \ltrch\fcs0 
\b\f2\fs22\cf5\lang2052\langfe2052\kerning0\langnp2052\insrsid9055683 \\\hich\af2\dbch\af31505\loch\f2 CR\\LF}{\rtlch\fcs1 \ab\af2 \ltrch\fcs0 \b\f2\fs22\cf2\lang2052\langfe2052\kerning0\langnp2052\insrsid9055683 \hich\af2\dbch\af31505\loch\f2 
$GPGSV,2,2,07,24,68,049,29,25,09,169,29,32,19,277,34*47}{\rtlch\fcs1 \ab\af2 \ltrch\fcs0 \b\f2\fs22\cf5\lang2052\langfe2052\kerning0\langnp2052\insrsid9055683 \\\hich\af2\dbch\af31505\loch\f2 CR\\LF}{\rtlch\fcs1 \ab\af2 \ltrch\fcs0 
\b\f2\fs22\cf2\lang2052\langfe2052\kerning0\langnp2052\insrsid9055683 \hich\af2\dbch\af31505\loch\f2 $GPGLL,3211.05501,N,11925.27367,E,010233.00,A,A*63}{\rtlch\fcs1 \ab\af2 \ltrch\fcs0 \b\f2\fs22\cf5\lang2052\langfe2052\kerning0\langnp2052\insrsid9055683 
\\\hich\af2\dbch\af31505\loch\f2 CR\\LF}{\rtlch\fcs1 \ab\af2 \ltrch\fcs0 \b\f2\fs22\cf2\lang2052\langfe2052\kerning0\langnp2052\insrsid9055683 \hich\af2\dbch\af31505\loch\f2 $GPRMC,010234.00,A,3211.05514,N,11925.273\hich\af2\dbch\af31505\loch\f2 
74,E,0.914,,270218,,,A*79}{\rtlch\fcs1 \ab\af2 \ltrch\fcs0 \b\f2\fs22\cf5\lang2052\langfe2052\kerning0\langnp2052\insrsid9055683 \\\hich\af2\dbch\af31505\loch\f2 CR\\LF}{\rtlch\fcs1 \ab\af2 \ltrch\fcs0 
\b\f2\fs22\cf2\lang2052\langfe2052\kerning0\langnp2052\insrsid9055683 \hich\af2\dbch\af31505\loch\f2 $GPVTG,,T,,M,0.914,N,1.692,K,A*23}{\rtlch\fcs1 \ab\af2 \ltrch\fcs0 \b\f2\fs22\cf5\lang2052\langfe2052\kerning0\langnp2052\insrsid9055683 \\
\hich\af2\dbch\af31505\loch\f2 CR\\LF}{\rtlch\fcs1 \ab\af2 \ltrch\fcs0 \b\f2\fs22\cf2\lang2052\langfe2052\kerning0\langnp2052\insrsid9055683 \hich\af2\dbch\af31505\loch\f2 $GPGGA,010234.00,3211.05514,N,11925.27374,E,1,04,5.90,873.2,M,4.3,M,,*66}{
\rtlch\fcs1 \ab\af2 \ltrch\fcs0 \b\f2\fs22\cf5\lang2052\langfe2052\kerning0\langnp2052\insrsid9055683 \\\hich\af2\dbch\af31505\loch\f2 CR\\LF}{\rtlch\fcs1 \ab\af2 \ltrch\fcs0 \b\f2\fs22\cf2\lang2052\langfe2052\kerning0\langnp2052\insrsid9055683 
\hich\af2\dbch\af31505\loch\f2 $GPGSA,A,3,32,10,24,25,,,,,,,,,10.20,5.90,8.33*34}{\rtlch\fcs1 \ab\af2 \ltrch\fcs0 \b\f2\fs22\cf5\lang2052\langfe2052\kerning0\langnp2052\insrsid9055683 \\\hich\af2\dbch\af31505\loch\f2 CR\\LF}{\rtlch\fcs1 \ab\af2 
\ltrch\fcs0 \b\f2\fs22\cf2\lang2052\langfe2052\kerning0\langnp2052\insrsid9055683 \hich\af2\dbch\af31505\loch\f2 $GPGSV,2,1,07,10,38,318,41,18,72,328,,20,45,128,14,21\hich\af2\dbch\af31505\loch\f2 ,41,225,10*72}{\rtlch\fcs1 \ab\af2 \ltrch\fcs0 
\b\f2\fs22\cf5\lang2052\langfe2052\kerning0\langnp2052\insrsid9055683 \\\hich\af2\dbch\af31505\loch\f2 CR\\LF}{\rtlch\fcs1 \ab\af2 \ltrch\fcs0 \b\f2\fs22\cf2\lang2052\langfe2052\kerning0\langnp2052\insrsid9055683 \hich\af2\dbch\af31505\loch\f2 
$GPGSV,2,2,07,24,68,049,29,25,09,169,30,32,19,277,34*4F}{\rtlch\fcs1 \ab\af2 \ltrch\fcs0 \b\f2\fs22\cf5\lang2052\langfe2052\kerning0\langnp2052\insrsid9055683 \\\hich\af2\dbch\af31505\loch\f2 CR\\LF}{\rtlch\fcs1 \ab\af2 \ltrch\fcs0 
\b\f2\fs22\cf2\lang2052\langfe2052\kerning0\langnp2052\insrsid9055683 \hich\af2\dbch\af31505\loch\f2 $GPGLL,3211.05514,N,11925.27374,E,010234.00,A,A*62}{\rtlch\fcs1 \ab\af2 \ltrch\fcs0 \b\f2\fs22\cf5\lang2052\langfe2052\kerning0\langnp2052\insrsid9055683 
\\\hich\af2\dbch\af31505\loch\f2 CR\\LF}{\rtlch\fcs1 \ab\af2 \ltrch\fcs0 \b\f2\fs22\cf2\lang2052\langfe2052\kerning0\langnp2052\insrsid9055683 \hich\af2\dbch\af31505\loch\f2 $GPRMC,010235.00,A,3211.05516,N,11925.27382,E,0.888,,270218,,,A*77}{\rtlch\fcs1 
\ab\af2 \ltrch\fcs0 \b\f2\fs22\cf5\lang2052\langfe2052\kerning0\langnp2052\insrsid9055683 \\\hich\af2\dbch\af31505\loch\f2 CR\\LF}{\rtlch\fcs1 \ab\af2 \ltrch\fcs0 \b\f2\fs22\cf2\lang2052\langfe2052\kerning0\langnp2052\insrsid9055683 
\hich\af2\dbch\af31505\loch\f2 $GPVTG,,T,,M,0.888,N,1.645,K,A*2D}{\rtlch\fcs1 \ab\af2 \ltrch\fcs0 \b\f2\fs22\cf5\lang2052\langfe2052\kerning0\langnp2052\insrsid9055683 \\\hich\af2\dbch\af31505\loch\f2 CR\\LF}{\rtlch\fcs1 \ab\af2 \ltrch\fcs0 
\b\f2\fs22\cf2\lang2052\langfe2052\kerning0\langnp2052\insrsid9055683 \hich\af2\dbch\af31505\loch\f2 $GPGGA,010235.00,3211.05516,N,11925.27382,E,1,04,5.90,873.7,M,4.3,M,,*69}{\rtlch\fcs1 \ab\af2 \ltrch\fcs0 
\b\f2\fs22\cf5\lang2052\langfe2052\kerning0\langnp2052\insrsid9055683 \\\hich\af2\dbch\af31505\loch\f2 CR\\LF}{\rtlch\fcs1 \ab\af2 \ltrch\fcs0 \b\f2\fs22\cf2\lang2052\langfe2052\kerning0\langnp2052\insrsid9055683 \hich\af2\dbch\af31505\loch\f2 
$GPGSA,A,3,32,10,24,25,,,,,,,,,10.22,5.90,8.34*31}{\rtlch\fcs1 \ab\af2 \ltrch\fcs0 \b\f2\fs22\cf5\lang2052\langfe2052\kerning0\langnp2052\insrsid9055683 \\\hich\af2\dbch\af31505\loch\f2 CR\\LF}{\rtlch\fcs1 \ab\af2 \ltrch\fcs0 
\b\f2\fs22\cf2\lang2052\langfe2052\kerning0\langnp2052\insrsid9055683 \hich\af2\dbch\af31505\loch\f2 $GPGSV,2,1,07,10,38,318,41,18,72,328,,20,45,128,14,21,41,225,12*70}{\rtlch\fcs1 \ab\af2 \ltrch\fcs0 
\b\f2\fs22\cf5\lang2052\langfe2052\kerning0\langnp2052\insrsid9055683 \\\hich\af2\dbch\af31505\loch\f2 CR\\LF}{\rtlch\fcs1 \ab\af2 \ltrch\fcs0 \b\f2\fs22\cf2\lang2052\langfe2052\kerning0\langnp2052\insrsid9055683 \hich\af2\dbch\af31505\loch\f2 
$GPGSV,2,2,07,24,68,049,30,25,09,169,30,32,19,277,3\hich\af2\dbch\af31505\loch\f2 3*40}{\rtlch\fcs1 \ab\af2 \ltrch\fcs0 \b\f2\fs22\cf5\lang2052\langfe2052\kerning0\langnp2052\insrsid9055683 \\\hich\af2\dbch\af31505\loch\f2 CR\\LF}{\rtlch\fcs1 \ab\af2 
\ltrch\fcs0 \b\f2\fs22\cf2\lang2052\langfe2052\kerning0\langnp2052\insrsid9055683 \hich\af2\dbch\af31505\loch\f2 $GPGLL,3211.05516,N,11925.27382,E,010235.00,A,A*68}{\rtlch\fcs1 \ab\af2 \ltrch\fcs0 
\b\f2\fs22\cf5\lang2052\langfe2052\kerning0\langnp2052\insrsid9055683 \\\hich\af2\dbch\af31505\loch\f2 CR\\LF}{\rtlch\fcs1 \ab\af2 \ltrch\fcs0 \b\f2\fs22\cf2\lang2052\langfe2052\kerning0\langnp2052\insrsid9055683 \hich\af2\dbch\af31505\loch\f2 
$GPRMC,010236.00,A,3211.05526,N,11925.27395,E,0.861,,270218,,,A*76}{\rtlch\fcs1 \ab\af2 \ltrch\fcs0 \b\f2\fs22\cf5\lang2052\langfe2052\kerning0\langnp2052\insrsid9055683 \\\hich\af2\dbch\af31505\loch\f2 CR\\LF}{\rtlch\fcs1 \ab\af2 \ltrch\fcs0 
\b\f2\fs22\cf2\lang2052\langfe2052\kerning0\langnp2052\insrsid9055683 \hich\af2\dbch\af31505\loch\f2 $GPVTG,,T,,M,0.861,N,1.595,K,A*24}{\rtlch\fcs1 \ab\af2 \ltrch\fcs0 \b\f2\fs22\cf5\lang2052\langfe2052\kerning0\langnp2052\insrsid9055683 \\
\hich\af2\dbch\af31505\loch\f2 CR\\LF}{\rtlch\fcs1 \ab\af2 \ltrch\fcs0 \b\f2\fs22\cf2\lang2052\langfe2052\kerning0\langnp2052\insrsid9055683 \hich\af2\dbch\af31505\loch\f2 $GPGGA,010236.00,3211.05526,N,11925.27395,E,1,04,5.91,873.7,M,4.3,M,,*6E}{
\rtlch\fcs1 \ab\af2 \ltrch\fcs0 \b\f2\fs22\cf5\lang2052\langfe2052\kerning0\langnp2052\insrsid9055683 \\\hich\af2\dbch\af31505\loch\f2 CR\\LF}{\rtlch\fcs1 \ab\af2 \ltrch\fcs0 \b\f2\fs22\cf2\lang2052\langfe2052\kerning0\langnp2052\insrsid9055683 
\hich\af2\dbch\af31505\loch\f2 $\hich\af2\dbch\af31505\loch\f2 GPGSA,A,3,32,10,24,25,,,,,,,,,10.23,5.91,8.35*30}{\rtlch\fcs1 \ab\af2 \ltrch\fcs0 \b\f2\fs22\cf5\lang2052\langfe2052\kerning0\langnp2052\insrsid9055683 \\\hich\af2\dbch\af31505\loch\f2 CR\\LF}
{\rtlch\fcs1 \ab\af2 \ltrch\fcs0 \b\f2\fs22\cf2\lang2052\langfe2052\kerning0\langnp2052\insrsid9055683 \hich\af2\dbch\af31505\loch\f2 $GPGSV,2,1,07,10,38,318,41,18,72,328,,20,45,128,14,21,41,225,13*71}{\rtlch\fcs1 \ab\af2 \ltrch\fcs0 
\b\f2\fs22\cf5\lang2052\langfe2052\kerning0\langnp2052\insrsid9055683 \\\hich\af2\dbch\af31505\loch\f2 CR\\LF}{\rtlch\fcs1 \ab\af2 \ltrch\fcs0 \b\f2\fs22\cf2\lang2052\langfe2052\kerning0\langnp2052\insrsid9055683 \hich\af2\dbch\af31505\loch\f2 
$GPGSV,2,2,07,24,68,049,30,25,09,169,30,32,19,277,33*40}{\rtlch\fcs1 \ab\af2 \ltrch\fcs0 \b\f2\fs22\cf5\lang2052\langfe2052\kerning0\langnp2052\insrsid9055683 \\\hich\af2\dbch\af31505\loch\f2 CR\\LF}{\rtlch\fcs1 \ab\af2 \ltrch\fcs0 
\b\f2\fs22\cf2\lang2052\langfe2052\kerning0\langnp2052\insrsid9055683 \hich\af2\dbch\af31505\loch\f2 $GPGLL,3211.05526,N,11925.27395,E,010236.00,A,A*6E}{\rtlch\fcs1 \ab\af2 \ltrch\fcs0 \b\f2\fs22\cf5\lang2052\langfe2052\kerning0\langnp2052\insrsid9055683 
\\\hich\af2\dbch\af31505\loch\f2 CR\\LF}{\rtlch\fcs1 \ab\af2 \ltrch\fcs0 \b\f2\fs22\cf2\lang2052\langfe2052\kerning0\langnp2052\insrsid9055683 \hich\af2\dbch\af31505\loch\f2 $GPRMC,010237\hich\af2\dbch\af31505\loch\f2 
.00,A,3211.05531,N,11925.27411,E,0.909,,270218,,,A*75}{\rtlch\fcs1 \ab\af2 \ltrch\fcs0 \b\f2\fs22\cf5\lang2052\langfe2052\kerning0\langnp2052\insrsid9055683 \\\hich\af2\dbch\af31505\loch\f2 CR\\LF}{\rtlch\fcs1 \ab\af2 \ltrch\fcs0 
\b\f2\fs22\cf2\lang2052\langfe2052\kerning0\langnp2052\insrsid9055683 \hich\af2\dbch\af31505\loch\f2 $GPVTG,,T,,M,0.909,N,1.683,K,A*2F}{\rtlch\fcs1 \ab\af2 \ltrch\fcs0 \b\f2\fs22\cf5\lang2052\langfe2052\kerning0\langnp2052\insrsid9055683 \\
\hich\af2\dbch\af31505\loch\f2 CR\\LF}{\rtlch\fcs1 \ab\af2 \ltrch\fcs0 \b\f2\fs22\cf2\lang2052\langfe2052\kerning0\langnp2052\insrsid9055683 \hich\af2\dbch\af31505\loch\f2 $GPGGA,010237.00,3211.05531,N,11925.27411,E,1,04,5.91,873.6,M,4.3,M,,*63}{
\rtlch\fcs1 \ab\af2 \ltrch\fcs0 \b\f2\fs22\cf5\lang2052\langfe2052\kerning0\langnp2052\insrsid9055683 \\\hich\af2\dbch\af31505\loch\f2 CR\\LF}{\rtlch\fcs1 \ab\af2 \ltrch\fcs0 \b\f2\fs22\cf2\lang2052\langfe2052\kerning0\langnp2052\insrsid9055683 
\hich\af2\dbch\af31505\loch\f2 $GPGSA,A,3,32,10,24,25,,,,,,,,,10.24,5.91,8.36*34}{\rtlch\fcs1 \ab\af2 \ltrch\fcs0 \b\f2\fs22\cf5\lang2052\langfe2052\kerning0\langnp2052\insrsid9055683 \\\hich\af2\dbch\af31505\loch\f2 CR\\LF}{\rtlch\fcs1 \ab\af2 
\ltrch\fcs0 \b\f2\fs22\cf2\lang2052\langfe2052\kerning0\langnp2052\insrsid9055683 \hich\af2\dbch\af31505\loch\f2 $GPGSV,2,1,07,10,38,318,4\hich\af2\dbch\af31505\loch\f2 1,18,72,328,,20,45,128,14,21,41,225,13*71}{\rtlch\fcs1 \ab\af2 \ltrch\fcs0 
\b\f2\fs22\cf5\lang2052\langfe2052\kerning0\langnp2052\insrsid9055683 \\\hich\af2\dbch\af31505\loch\f2 CR\\LF}{\rtlch\fcs1 \ab\af2 \ltrch\fcs0 \b\f2\fs22\cf2\lang2052\langfe2052\kerning0\langnp2052\insrsid9055683 \hich\af2\dbch\af31505\loch\f2 
$GPGSV,2,2,07,24,68,049,29,25,09,169,31,32,19,277,33*49}{\rtlch\fcs1 \ab\af2 \ltrch\fcs0 \b\f2\fs22\cf5\lang2052\langfe2052\kerning0\langnp2052\insrsid9055683 \\\hich\af2\dbch\af31505\loch\f2 CR\\LF}{\rtlch\fcs1 \ab\af2 \ltrch\fcs0 
\b\f2\fs22\cf2\lang2052\langfe2052\kerning0\langnp2052\insrsid9055683 \hich\af2\dbch\af31505\loch\f2 $GPGLL,3211.05531,N,11925.27411,E,010237.00,A,A*62}{\rtlch\fcs1 \ab\af2 \ltrch\fcs0 \b\f2\fs22\cf5\lang2052\langfe2052\kerning0\langnp2052\insrsid9055683 
\\\hich\af2\dbch\af31505\loch\f2 CR\\LF}{\rtlch\fcs1 \ab\af2 \ltrch\fcs0 \b\f2\fs22\cf2\lang2052\langfe2052\kerning0\langnp2052\insrsid9055683 \hich\af2\dbch\af31505\loch\f2 $GPRMC,010238.00,A,3211.05533,N,11925.27420,E,0.825,,270218,,,A*75}{\rtlch\fcs1 
\ab\af2 \ltrch\fcs0 \b\f2\fs22\cf5\lang2052\langfe2052\kerning0\langnp2052\insrsid9055683 \\\hich\af2\dbch\af31505\loch\f2 CR\\LF}{\rtlch\fcs1 \ab\af2 \ltrch\fcs0 \b\f2\fs22\cf2\lang2052\langfe2052\kerning0\langnp2052\insrsid9055683 
\hich\af2\dbch\af31505\loch\f2 $GPVTG,,T,,M,0.825,N\hich\af2\dbch\af31505\loch\f2 ,1.527,K,A*2D}{\rtlch\fcs1 \ab\af2 \ltrch\fcs0 \b\f2\fs22\cf5\lang2052\langfe2052\kerning0\langnp2052\insrsid9055683 \\\hich\af2\dbch\af31505\loch\f2 CR\\LF}{\rtlch\fcs1 
\ab\af2 \ltrch\fcs0 \b\f2\fs22\cf2\lang2052\langfe2052\kerning0\langnp2052\insrsid9055683 \hich\af2\dbch\af31505\loch\f2 $GPGGA,010238.00,3211.05533,N,11925.27420,E,1,04,5.92,873.7,M,4.3,M,,*6E}{\rtlch\fcs1 \ab\af2 \ltrch\fcs0 
\b\f2\fs22\cf5\lang2052\langfe2052\kerning0\langnp2052\insrsid9055683 \\\hich\af2\dbch\af31505\loch\f2 CR\\LF}{\rtlch\fcs1 \ab\af2 \ltrch\fcs0 \b\f2\fs22\cf2\lang2052\langfe2052\kerning0\langnp2052\insrsid9055683 \hich\af2\dbch\af31505\loch\f2 
$GPGSA,A,3,32,10,24,25,,,,,,,,,10.25,5.92,8.37*37}{\rtlch\fcs1 \ab\af2 \ltrch\fcs0 \b\f2\fs22\cf5\lang2052\langfe2052\kerning0\langnp2052\insrsid9055683 \\\hich\af2\dbch\af31505\loch\f2 CR\\LF}{\rtlch\fcs1 \ab\af2 \ltrch\fcs0 
\b\f2\fs22\cf2\lang2052\langfe2052\kerning0\langnp2052\insrsid9055683 \hich\af2\dbch\af31505\loch\f2 $GPGSV,2,1,07,10,38,318,41,18,72,328,,20,45,128,16,21,41,225,10*70}{\rtlch\fcs1 \ab\af2 \ltrch\fcs0 
\b\f2\fs22\cf5\lang2052\langfe2052\kerning0\langnp2052\insrsid9055683 \\\hich\af2\dbch\af31505\loch\f2 CR\\LF}{\rtlch\fcs1 \ab\af2 \ltrch\fcs0 \b\f2\fs22\cf2\lang2052\langfe2052\kerning0\langnp2052\insrsid9055683 \hich\af2\dbch\af31505\loch\f2 
$GPGSV,2,2,07,24,68,049,29,25,09\hich\af2\dbch\af31505\loch\f2 ,169,31,32,19,277,33*49}{\rtlch\fcs1 \ab\af2 \ltrch\fcs0 \b\f2\fs22\cf5\lang2052\langfe2052\kerning0\langnp2052\insrsid9055683 \\\hich\af2\dbch\af31505\loch\f2 CR\\LF}{\rtlch\fcs1 \ab\af2 
\ltrch\fcs0 \b\f2\fs22\cf2\lang2052\langfe2052\kerning0\langnp2052\insrsid9055683 \hich\af2\dbch\af31505\loch\f2 $GPGLL,3211.05533,N,11925.27420,E,010238.00,A,A*6D}{\rtlch\fcs1 \ab\af2 \ltrch\fcs0 
\b\f2\fs22\cf5\lang2052\langfe2052\kerning0\langnp2052\insrsid9055683 \\\hich\af2\dbch\af31505\loch\f2 CR\\LF}{\rtlch\fcs1 \ab\af2 \ltrch\fcs0 \b\f2\fs22\cf2\lang2052\langfe2052\kerning0\langnp2052\insrsid9055683 \hich\af2\dbch\af31505\loch\f2 
$GPRMC,010239.00,A,3211.05536,N,11925.27427,E,0.665,,270218,,,A*7C}{\rtlch\fcs1 \ab\af2 \ltrch\fcs0 \b\f2\fs22\cf5\lang2052\langfe2052\kerning0\langnp2052\insrsid9055683 \\\hich\af2\dbch\af31505\loch\f2 CR\\LF}{\rtlch\fcs1 \ab\af2 \ltrch\fcs0 
\b\f2\fs22\cf2\lang2052\langfe2052\kerning0\langnp2052\insrsid9055683 \hich\af2\dbch\af31505\loch\f2 $GPVTG,,T,,M,0.665,N,1.232,K,A*24}{\rtlch\fcs1 \ab\af2 \ltrch\fcs0 \b\f2\fs22\cf5\lang2052\langfe2052\kerning0\langnp2052\insrsid9055683 \\
\hich\af2\dbch\af31505\loch\f2 CR\\LF}{\rtlch\fcs1 \ab\af2 \ltrch\fcs0 \b\f2\fs22\cf2\lang2052\langfe2052\kerning0\langnp2052\insrsid9055683 \hich\af2\dbch\af31505\loch\f2 $GPGGA,010239.00,3211.05536,N,11925.27427,E,1,04,5.92,873.6,
\hich\af2\dbch\af31505\loch\f2 M,4.3,M,,*6C}{\rtlch\fcs1 \ab\af2 \ltrch\fcs0 \b\f2\fs22\cf5\lang2052\langfe2052\kerning0\langnp2052\insrsid9055683 \\\hich\af2\dbch\af31505\loch\f2 CR\\LF}{\rtlch\fcs1 \ab\af2 \ltrch\fcs0 
\b\f2\fs22\cf2\lang2052\langfe2052\kerning0\langnp2052\insrsid9055683 \hich\af2\dbch\af31505\loch\f2 $GPGSA,A,3,32,10,24,25,,,,,,,,,10.26,5.92,8.38*3B}{\rtlch\fcs1 \ab\af2 \ltrch\fcs0 \b\f2\fs22\cf5\lang2052\langfe2052\kerning0\langnp2052\insrsid9055683 
\\\hich\af2\dbch\af31505\loch\f2 CR\\LF}{\rtlch\fcs1 \ab\af2 \ltrch\fcs0 \b\f2\fs22\cf2\lang2052\langfe2052\kerning0\langnp2052\insrsid9055683 \hich\af2\dbch\af31505\loch\f2 $GPGSV,2,1,07,10,38,318,42,18,72,328,,20,45,128,19,21,41,225,08*75}{\rtlch\fcs1 
\ab\af2 \ltrch\fcs0 \b\f2\fs22\cf5\lang2052\langfe2052\kerning0\langnp2052\insrsid9055683 \\\hich\af2\dbch\af31505\loch\f2 CR\\LF}{\rtlch\fcs1 \ab\af2 \ltrch\fcs0 \b\f2\fs22\cf2\lang2052\langfe2052\kerning0\langnp2052\insrsid9055683 
\hich\af2\dbch\af31505\loch\f2 $GPGSV,2,2,07,24,68,049,29,25,09,169,31,32,19,277,33*49}{\rtlch\fcs1 \ab\af2 \ltrch\fcs0 \b\f2\fs22\cf5\lang2052\langfe2052\kerning0\langnp2052\insrsid9055683 \\\hich\af2\dbch\af31505\loch\f2 CR\\LF}{\rtlch\fcs1 \ab\af2 
\ltrch\fcs0 \b\f2\fs22\cf2\lang2052\langfe2052\kerning0\langnp2052\insrsid9055683 \hich\af2\dbch\af31505\loch\f2 $GPGLL,3211.05536,N,11925.27427,E,010239.00,A,A*6E}{\rtlch\fcs1 \ab\af2 \ltrch\fcs0 
\b\f2\fs22\cf5\lang2052\langfe2052\kerning0\langnp2052\insrsid9055683 \\\hich\af2\dbch\af31505\loch\f2 CR\\LF}{\rtlch\fcs1 \ab\af2 \ltrch\fcs0 \b\f2\fs22\cf2\lang2052\langfe2052\kerning0\langnp2052\insrsid9055683 \hich\af2\dbch\af31505\loch\f2 
$GPRMC,010240.00,A,3211.05525,N,11925.27426,E,0.724,,270218,,,A*75}{\rtlch\fcs1 \ab\af2 \ltrch\fcs0 \b\f2\fs22\cf5\lang2052\langfe2052\kerning0\langnp2052\insrsid9055683 \\\hich\af2\dbch\af31505\loch\f2 CR\\LF}{\rtlch\fcs1 \ab\af2 \ltrch\fcs0 
\b\f2\fs22\cf2\lang2052\langfe2052\kerning0\langnp2052\insrsid9055683 \hich\af2\dbch\af31505\loch\f2 $GPVTG,,T,,M,0.724,N,1.341,K,A*25}{\rtlch\fcs1 \ab\af2 \ltrch\fcs0 \b\f2\fs22\cf5\lang2052\langfe2052\kerning0\langnp2052\insrsid9055683 \\
\hich\af2\dbch\af31505\loch\f2 CR\\LF}{\rtlch\fcs1 \ab\af2 \ltrch\fcs0 \b\f2\fs22\cf2\lang2052\langfe2052\kerning0\langnp2052\insrsid9055683 \hich\af2\dbch\af31505\loch\f2 $GPGGA,010240.00,3211.05525,N,11925.27426,E,1,04,5.93,874.2,M,4.3,M,,*63}{
\rtlch\fcs1 \ab\af2 \ltrch\fcs0 \b\f2\fs22\cf5\lang2052\langfe2052\kerning0\langnp2052\insrsid9055683 \\\hich\af2\dbch\af31505\loch\f2 CR\\LF}{\rtlch\fcs1 \ab\af2 \ltrch\fcs0 \b\f2\fs22\cf2\lang2052\langfe2052\kerning0\langnp2052\insrsid9055683 
\hich\af2\dbch\af31505\loch\f2 $GPGSA,A,3,32,10,24,25,,,,,,,,,10.27,5.93,8.39*3A}{\rtlch\fcs1 \ab\af2 \ltrch\fcs0 \b\f2\fs22\cf5\lang2052\langfe2052\kerning0\langnp2052\insrsid9055683 \\\hich\af2\dbch\af31505\loch\f2 CR\\LF}{\rtlch\fcs1 \ab\af2 
\ltrch\fcs0 \b\f2\fs22\cf2\lang2052\langfe2052\kerning0\langnp2052\insrsid9055683 \hich\af2\dbch\af31505\loch\f2 $GPGSV\hich\af2\dbch\af31505\loch\f2 ,2,1,07,10,38,318,42,18,72,328,,20,45,128,21,21,41,225,21*75}{\rtlch\fcs1 \ab\af2 \ltrch\fcs0 
\b\f2\fs22\cf5\lang2052\langfe2052\kerning0\langnp2052\insrsid9055683 \\\hich\af2\dbch\af31505\loch\f2 CR\\LF}{\rtlch\fcs1 \ab\af2 \ltrch\fcs0 \b\f2\fs22\cf2\lang2052\langfe2052\kerning0\langnp2052\insrsid9055683 \hich\af2\dbch\af31505\loch\f2 
$GPGSV,2,2,07,24,68,049,29,25,09,169,31,32,19,277,32*48}{\rtlch\fcs1 \ab\af2 \ltrch\fcs0 \b\f2\fs22\cf5\lang2052\langfe2052\kerning0\langnp2052\insrsid9055683 \\\hich\af2\dbch\af31505\loch\f2 CR\\LF}{\rtlch\fcs1 \ab\af2 \ltrch\fcs0 
\b\f2\fs22\cf2\lang2052\langfe2052\kerning0\langnp2052\insrsid9055683 \hich\af2\dbch\af31505\loch\f2 $GPGLL,3211.05525,N,11925.27426,E,010240.00,A,A*63}{\rtlch\fcs1 \ab\af2 \ltrch\fcs0 \b\f2\fs22\cf5\lang2052\langfe2052\kerning0\langnp2052\insrsid9055683 
\\\hich\af2\dbch\af31505\loch\f2 CR\\LF}{\rtlch\fcs1 \ab\af2 \ltrch\fcs0 \b\f2\fs22\cf2\lang2052\langfe2052\kerning0\langnp2052\insrsid9055683 \hich\af2\dbch\af31505\loch\f2 $GPRMC,010241.00,A,3211.05516,N,11925.27428,E,0.659,,270218,,,A*71}{\rtlch\fcs1 
\ab\af2 \ltrch\fcs0 \b\f2\fs22\cf5\lang2052\langfe2052\kerning0\langnp2052\insrsid9055683 \\\hich\af2\dbch\af31505\loch\f2 CR\\LF}{\rtlch\fcs1 \ab\af2 \ltrch\fcs0 \b\f2\fs22\cf2\lang2052\langfe2052\kerning0\langnp2052\insrsid9055683 
\hich\af2\dbch\af31505\loch\f2 $\hich\af2\dbch\af31505\loch\f2 GPVTG,,T,,M,0.659,N,1.220,K,A*28}{\rtlch\fcs1 \ab\af2 \ltrch\fcs0 \b\f2\fs22\cf5\lang2052\langfe2052\kerning0\langnp2052\insrsid9055683 \\\hich\af2\dbch\af31505\loch\f2 CR\\LF}{\rtlch\fcs1 
\ab\af2 \ltrch\fcs0 \b\f2\fs22\cf2\lang2052\langfe2052\kerning0\langnp2052\insrsid9055683 \hich\af2\dbch\af31505\loch\f2 $GPGGA,010241.00,3211.05516,N,11925.27428,E,1,04,5.94,874.6,M,4.3,M,,*6F}{\rtlch\fcs1 \ab\af2 \ltrch\fcs0 
\b\f2\fs22\cf5\lang2052\langfe2052\kerning0\langnp2052\insrsid9055683 \\\hich\af2\dbch\af31505\loch\f2 CR\\LF}{\rtlch\fcs1 \ab\af2 \ltrch\fcs0 \b\f2\fs22\cf2\lang2052\langfe2052\kerning0\langnp2052\insrsid9055683 \hich\af2\dbch\af31505\loch\f2 
$GPGSA,A,3,32,10,24,25,,,,,,,,,10.28,5.94,8.40*3C}{\rtlch\fcs1 \ab\af2 \ltrch\fcs0 \b\f2\fs22\cf5\lang2052\langfe2052\kerning0\langnp2052\insrsid9055683 \\\hich\af2\dbch\af31505\loch\f2 CR\\LF}{\rtlch\fcs1 \ab\af2 \ltrch\fcs0 
\b\f2\fs22\cf2\lang2052\langfe2052\kerning0\langnp2052\insrsid9055683 \hich\af2\dbch\af31505\loch\f2 $GPGSV,2,1,07,10,38,318,42,18,72,328,,20,45,128,21,21,41,225,20*74}{\rtlch\fcs1 \ab\af2 \ltrch\fcs0 
\b\f2\fs22\cf5\lang2052\langfe2052\kerning0\langnp2052\insrsid9055683 \\\hich\af2\dbch\af31505\loch\f2 CR\\LF}{\rtlch\fcs1 \ab\af2 \ltrch\fcs0 \b\f2\fs22\cf2\lang2052\langfe2052\kerning0\langnp2052\insrsid9055683 \hich\af2\dbch\af31505\loch\f2 
$GPGSV,2,2,07,24,68,049,28,25,09,169,31,32,19,277,31*4A}{\rtlch\fcs1 \ab\af2 \ltrch\fcs0 \b\f2\fs22\cf5\lang2052\langfe2052\kerning0\langnp2052\insrsid9055683 \\\hich\af2\dbch\af31505\loch\f2 CR\\LF}{\rtlch\fcs1 \ab\af2 \ltrch\fcs0 
\b\f2\fs22\cf2\lang2052\langfe2052\kerning0\langnp2052\insrsid9055683 \hich\af2\dbch\af31505\loch\f2 $GPGLL,3211.05516,N,11925.27428,E,010241.00,A,A*6C}{\rtlch\fcs1 \ab\af2 \ltrch\fcs0 \b\f2\fs22\cf5\lang2052\langfe2052\kerning0\langnp2052\insrsid9055683 
\\\hich\af2\dbch\af31505\loch\f2 CR\\LF}{\rtlch\fcs1 \ab\af2 \ltrch\fcs0 \b\f2\fs22\cf2\lang2052\langfe2052\kerning0\langnp2052\insrsid9055683 \hich\af2\dbch\af31505\loch\f2 $GPRMC,010242.00,A,3211.05499,N,11925.27407,E,0.720,,270218,,,A*76}{\rtlch\fcs1 
\ab\af2 \ltrch\fcs0 \b\f2\fs22\cf5\lang2052\langfe2052\kerning0\langnp2052\insrsid9055683 \\\hich\af2\dbch\af31505\loch\f2 CR\\LF}{\rtlch\fcs1 \ab\af2 \ltrch\fcs0 \b\f2\fs22\cf2\lang2052\langfe2052\kerning0\langnp2052\insrsid9055683 
\hich\af2\dbch\af31505\loch\f2 $GPVTG,,T,,M,0.720,N,1.333,K,A*24}{\rtlch\fcs1 \ab\af2 \ltrch\fcs0 \b\f2\fs22\cf5\lang2052\langfe2052\kerning0\langnp2052\insrsid9055683 \\\hich\af2\dbch\af31505\loch\f2 CR\\LF}{\rtlch\fcs1 \ab\af2 \ltrch\fcs0 
\b\f2\fs22\cf2\lang2052\langfe2052\kerning0\langnp2052\insrsid9055683 \hich\af2\dbch\af31505\loch\f2 $GPGGA,010242.00,3211.05499,\hich\af2\dbch\af31505\loch\f2 N,11925.27407,E,1,04,5.94,875.7,M,4.3,M,,*67}{\rtlch\fcs1 \ab\af2 \ltrch\fcs0 
\b\f2\fs22\cf5\lang2052\langfe2052\kerning0\langnp2052\insrsid9055683 \\\hich\af2\dbch\af31505\loch\f2 CR\\LF}{\rtlch\fcs1 \ab\af2 \ltrch\fcs0 \b\f2\fs22\cf2\lang2052\langfe2052\kerning0\langnp2052\insrsid9055683 \hich\af2\dbch\af31505\loch\f2 
$GPGSA,A,3,32,10,24,25,,,,,,,,,10.29,5.94,8.41*3C}{\rtlch\fcs1 \ab\af2 \ltrch\fcs0 \b\f2\fs22\cf5\lang2052\langfe2052\kerning0\langnp2052\insrsid9055683 \\\hich\af2\dbch\af31505\loch\f2 CR\\LF}{\rtlch\fcs1 \ab\af2 \ltrch\fcs0 
\b\f2\fs22\cf2\lang2052\langfe2052\kerning0\langnp2052\insrsid9055683 \hich\af2\dbch\af31505\loch\f2 $GPGSV,2,1,07,10,38,318,43,18,72,328,,20,45,128,20,21,41,225,18*7F}{\rtlch\fcs1 \ab\af2 \ltrch\fcs0 
\b\f2\fs22\cf5\lang2052\langfe2052\kerning0\langnp2052\insrsid9055683 \\\hich\af2\dbch\af31505\loch\f2 CR\\LF}{\rtlch\fcs1 \ab\af2 \ltrch\fcs0 \b\f2\fs22\cf2\lang2052\langfe2052\kerning0\langnp2052\insrsid9055683 \hich\af2\dbch\af31505\loch\f2 
$GPGSV,2,2,07,24,68,049,28,25,09,169,31,32,19,277,31*4A}{\rtlch\fcs1 \ab\af2 \ltrch\fcs0 \b\f2\fs22\cf5\lang2052\langfe2052\kerning0\langnp2052\insrsid9055683 \\\hich\af2\dbch\af31505\loch\f2 CR\\LF}{\rtlch\fcs1 \ab\af2 \ltrch\fcs0 
\b\f2\fs22\cf2\lang2052\langfe2052\kerning0\langnp2052\insrsid9055683 \hich\af2\dbch\af31505\loch\f2 $GPGLL,3211.05499,\hich\af2\dbch\af31505\loch\f2 N,11925.27407,E,010242.00,A,A*64}{\rtlch\fcs1 \ab\af2 \ltrch\fcs0 
\b\f2\fs22\cf5\lang2052\langfe2052\kerning0\langnp2052\insrsid9055683 \\\hich\af2\dbch\af31505\loch\f2 CR\\LF}{\rtlch\fcs1 \ab\af2 \ltrch\fcs0 \b\f2\fs22\cf2\lang2052\langfe2052\kerning0\langnp2052\insrsid9055683 \hich\af2\dbch\af31505\loch\f2 
$GPRMC,010243.00,A,3211.05475,N,11925.27378,E,0.604,,270218,,,A*7D}{\rtlch\fcs1 \ab\af2 \ltrch\fcs0 \b\f2\fs22\cf5\lang2052\langfe2052\kerning0\langnp2052\insrsid9055683 \\\hich\af2\dbch\af31505\loch\f2 CR\\LF}{\rtlch\fcs1 \ab\af2 \ltrch\fcs0 
\b\f2\fs22\cf2\lang2052\langfe2052\kerning0\langnp2052\insrsid9055683 \hich\af2\dbch\af31505\loch\f2 $GPVTG,,T,,M,0.604,N,1.119,K,A*29}{\rtlch\fcs1 \ab\af2 \ltrch\fcs0 \b\f2\fs22\cf5\lang2052\langfe2052\kerning0\langnp2052\insrsid9055683 \\
\hich\af2\dbch\af31505\loch\f2 CR\\LF}{\rtlch\fcs1 \ab\af2 \ltrch\fcs0 \b\f2\fs22\cf2\lang2052\langfe2052\kerning0\langnp2052\insrsid9055683 \hich\af2\dbch\af31505\loch\f2 $GPGGA,010243.00,3211.05475,N,11925.27378,E,1,04,5.95,877.0,M,4.3,M,,*6F}{
\rtlch\fcs1 \ab\af2 \ltrch\fcs0 \b\f2\fs22\cf5\lang2052\langfe2052\kerning0\langnp2052\insrsid9055683 \\\hich\af2\dbch\af31505\loch\f2 CR\\LF}{\rtlch\fcs1 \ab\af2 \ltrch\fcs0 \b\f2\fs22\cf2\lang2052\langfe2052\kerning0\langnp2052\insrsid9055683 
\hich\af2\dbch\af31505\loch\f2 $GPGSA,A,3,32,10,24,25,,,,,,,\hich\af2\dbch\af31505\loch\f2 ,,10.30,5.95,8.42*36}{\rtlch\fcs1 \ab\af2 \ltrch\fcs0 \b\f2\fs22\cf5\lang2052\langfe2052\kerning0\langnp2052\insrsid9055683 \\\hich\af2\dbch\af31505\loch\f2 CR\\LF}
{\rtlch\fcs1 \ab\af2 \ltrch\fcs0 \b\f2\fs22\cf2\lang2052\langfe2052\kerning0\langnp2052\insrsid9055683 \hich\af2\dbch\af31505\loch\f2 $GPGSV,2,1,07,10,38,318,43,18,72,328,,20,45,128,18,21,41,225,15*79}{\rtlch\fcs1 \ab\af2 \ltrch\fcs0 
\b\f2\fs22\cf5\lang2052\langfe2052\kerning0\langnp2052\insrsid9055683 \\\hich\af2\dbch\af31505\loch\f2 CR\\LF}{\rtlch\fcs1 \ab\af2 \ltrch\fcs0 \b\f2\fs22\cf2\lang2052\langfe2052\kerning0\langnp2052\insrsid9055683 \hich\af2\dbch\af31505\loch\f2 
$GPGSV,2,2,07,24,68,049,29,25,09,169,31,32,19,277,30*4A}{\rtlch\fcs1 \ab\af2 \ltrch\fcs0 \b\f2\fs22\cf5\lang2052\langfe2052\kerning0\langnp2052\insrsid9055683 \\\hich\af2\dbch\af31505\loch\f2 CR\\LF}{\rtlch\fcs1 \ab\af2 \ltrch\fcs0 
\b\f2\fs22\cf2\lang2052\langfe2052\kerning0\langnp2052\insrsid9055683 \hich\af2\dbch\af31505\loch\f2 $GPGLL,3211.05475,N,11925.27378,E,010243.00,A,A*68}{\rtlch\fcs1 \ab\af2 \ltrch\fcs0 \b\f2\fs22\cf5\lang2052\langfe2052\kerning0\langnp2052\insrsid9055683 
\\\hich\af2\dbch\af31505\loch\f2 CR\\LF}{\rtlch\fcs1 \ab\af2 \ltrch\fcs0 \b\f2\fs22\cf2\lang2052\langfe2052\kerning0\langnp2052\insrsid9055683 \hich\af2\dbch\af31505\loch\f2 $GPRMC,010244.00,A,3211.05450,N,11925.273\hich\af2\dbch\af31505\loch\f2 
54,E,0.423,,270218,,,A*74}{\rtlch\fcs1 \ab\af2 \ltrch\fcs0 \b\f2\fs22\cf5\lang2052\langfe2052\kerning0\langnp2052\insrsid9055683 \\\hich\af2\dbch\af31505\loch\f2 CR\\LF}{\rtlch\fcs1 \ab\af2 \ltrch\fcs0 
\b\f2\fs22\cf2\lang2052\langfe2052\kerning0\langnp2052\insrsid9055683 \hich\af2\dbch\af31505\loch\f2 $GPVTG,,T,,M,0.423,N,0.783,K,A*2A}{\rtlch\fcs1 \ab\af2 \ltrch\fcs0 \b\f2\fs22\cf5\lang2052\langfe2052\kerning0\langnp2052\insrsid9055683 \\
\hich\af2\dbch\af31505\loch\f2 CR\\LF}{\rtlch\fcs1 \ab\af2 \ltrch\fcs0 \b\f2\fs22\cf2\lang2052\langfe2052\kerning0\langnp2052\insrsid9055683 \hich\af2\dbch\af31505\loch\f2 $GPGGA,010244.00,3211.05450,N,11925.27354,E,1,04,5.95,878.2,M,4.3,M,,*6C}{
\rtlch\fcs1 \ab\af2 \ltrch\fcs0 \b\f2\fs22\cf5\lang2052\langfe2052\kerning0\langnp2052\insrsid9055683 \\\hich\af2\dbch\af31505\loch\f2 CR\\LF}{\rtlch\fcs1 \ab\af2 \ltrch\fcs0 \b\f2\fs22\cf2\lang2052\langfe2052\kerning0\langnp2052\insrsid9055683 
\hich\af2\dbch\af31505\loch\f2 $GPGSA,A,3,32,10,24,25,,,,,,,,,10.32,5.95,8.43*35}{\rtlch\fcs1 \ab\af2 \ltrch\fcs0 \b\f2\fs22\cf5\lang2052\langfe2052\kerning0\langnp2052\insrsid9055683 \\\hich\af2\dbch\af31505\loch\f2 CR\\LF}{\rtlch\fcs1 \ab\af2 
\ltrch\fcs0 \b\f2\fs22\cf2\lang2052\langfe2052\kerning0\langnp2052\insrsid9055683 \hich\af2\dbch\af31505\loch\f2 $GPGSV,2,1,07,10,38,318,43,18,72,328,,20,45,128,15,21\hich\af2\dbch\af31505\loch\f2 ,41,225,11*70}{\rtlch\fcs1 \ab\af2 \ltrch\fcs0 
\b\f2\fs22\cf5\lang2052\langfe2052\kerning0\langnp2052\insrsid9055683 \\\hich\af2\dbch\af31505\loch\f2 CR\\LF}{\rtlch\fcs1 \ab\af2 \ltrch\fcs0 \b\f2\fs22\cf2\lang2052\langfe2052\kerning0\langnp2052\insrsid9055683 \hich\af2\dbch\af31505\loch\f2 
$GPGSV,2,2,07,24,68,049,29,25,09,169,32,32,19,277,29*41}{\rtlch\fcs1 \ab\af2 \ltrch\fcs0 \b\f2\fs22\cf5\lang2052\langfe2052\kerning0\langnp2052\insrsid9055683 \\\hich\af2\dbch\af31505\loch\f2 CR\\LF}{\rtlch\fcs1 \ab\af2 \ltrch\fcs0 
\b\f2\fs22\cf2\lang2052\langfe2052\kerning0\langnp2052\insrsid9055683 \hich\af2\dbch\af31505\loch\f2 $GPGLL,3211.05450,N,11925.27354,E,010244.00,A,A*66}{\rtlch\fcs1 \ab\af2 \ltrch\fcs0 \b\f2\fs22\cf5\lang2052\langfe2052\kerning0\langnp2052\insrsid9055683 
\\\hich\af2\dbch\af31505\loch\f2 CR\\LF}{\rtlch\fcs1 \ab\af2 \ltrch\fcs0 \b\f2\fs22\cf2\lang2052\langfe2052\kerning0\langnp2052\insrsid9055683 \hich\af2\dbch\af31505\loch\f2 $GPRMC,010245.00,A,3211.05420,N,11925.27322,E,0.615,,270218,,,A*74}{\rtlch\fcs1 
\ab\af2 \ltrch\fcs0 \b\f2\fs22\cf5\lang2052\langfe2052\kerning0\langnp2052\insrsid9055683 \\\hich\af2\dbch\af31505\loch\f2 CR\\LF}{\rtlch\fcs1 \ab\af2 \ltrch\fcs0 \b\f2\fs22\cf2\lang2052\langfe2052\kerning0\langnp2052\insrsid9055683 
\hich\af2\dbch\af31505\loch\f2 $GPVTG,,T,,M,0.615,N,1.139,K,A*2B}{\rtlch\fcs1 \ab\af2 \ltrch\fcs0 \b\f2\fs22\cf5\lang2052\langfe2052\kerning0\langnp2052\insrsid9055683 \\\hich\af2\dbch\af31505\loch\f2 CR\\LF}{\rtlch\fcs1 \ab\af2 \ltrch\fcs0 
\b\f2\fs22\cf2\lang2052\langfe2052\kerning0\langnp2052\insrsid9055683 \hich\af2\dbch\af31505\loch\f2 $GPGGA,01\hich\af2\dbch\af31505\loch\f2 0245.00,3211.05420,N,11925.27322,E,1,04,5.96,879.6,M,4.3,M,,*6D}{\rtlch\fcs1 \ab\af2 \ltrch\fcs0 
\b\f2\fs22\cf5\lang2052\langfe2052\kerning0\langnp2052\insrsid9055683 \\\hich\af2\dbch\af31505\loch\f2 CR\\LF}{\rtlch\fcs1 \ab\af2 \ltrch\fcs0 \b\f2\fs22\cf2\lang2052\langfe2052\kerning0\langnp2052\insrsid9055683 \hich\af2\dbch\af31505\loch\f2 
$GPGSA,A,3,32,10,24,25,,,,,,,,,10.33,5.96,8.44*30}{\rtlch\fcs1 \ab\af2 \ltrch\fcs0 \b\f2\fs22\cf5\lang2052\langfe2052\kerning0\langnp2052\insrsid9055683 \\\hich\af2\dbch\af31505\loch\f2 CR\\LF}{\rtlch\fcs1 \ab\af2 \ltrch\fcs0 
\b\f2\fs22\cf2\lang2052\langfe2052\kerning0\langnp2052\insrsid9055683 \hich\af2\dbch\af31505\loch\f2 $GPGSV,2,1,07,10,38,318,43,18,72,328,,20,45,128,14,21,41,225,13*73}{\rtlch\fcs1 \ab\af2 \ltrch\fcs0 
\b\f2\fs22\cf5\lang2052\langfe2052\kerning0\langnp2052\insrsid9055683 \\\hich\af2\dbch\af31505\loch\f2 CR\\LF}{\rtlch\fcs1 \ab\af2 \ltrch\fcs0 \b\f2\fs22\cf2\lang2052\langfe2052\kerning0\langnp2052\insrsid9055683 \hich\af2\dbch\af31505\loch\f2 
$GPGSV,2,2,07,24,68,049,29,25,09,169,32,32,19,277,29*41}{\rtlch\fcs1 \ab\af2 \ltrch\fcs0 \b\f2\fs22\cf5\lang2052\langfe2052\kerning0\langnp2052\insrsid9055683 \\\hich\af2\dbch\af31505\loch\f2 CR\\L\hich\af2\dbch\af31505\loch\f2 F}{\rtlch\fcs1 \ab\af2 
\ltrch\fcs0 \b\f2\fs22\cf2\lang2052\langfe2052\kerning0\langnp2052\insrsid9055683 \hich\af2\dbch\af31505\loch\f2 $GPGLL,3211.05420,N,11925.27322,E,010245.00,A,A*61}{\rtlch\fcs1 \ab\af2 \ltrch\fcs0 
\b\f2\fs22\cf5\lang2052\langfe2052\kerning0\langnp2052\insrsid9055683 \\\hich\af2\dbch\af31505\loch\f2 CR\\LF}{\rtlch\fcs1 \ab\af2 \ltrch\fcs0 \b\f2\fs22\cf2\lang2052\langfe2052\kerning0\langnp2052\insrsid9055683 \hich\af2\dbch\af31505\loch\f2 
$GPRMC,010246.00,A,3211.05383,N,11925.27283,E,0.782,,270218,,,A*7C}{\rtlch\fcs1 \ab\af2 \ltrch\fcs0 \b\f2\fs22\cf5\lang2052\langfe2052\kerning0\langnp2052\insrsid9055683 \\\hich\af2\dbch\af31505\loch\f2 CR\\LF}{\rtlch\fcs1 \ab\af2 \ltrch\fcs0 
\b\f2\fs22\cf2\lang2052\langfe2052\kerning0\langnp2052\insrsid9055683 \hich\af2\dbch\af31505\loch\f2 $GPVTG,,T,,M,0.782,N,1.448,K,A*27}{\rtlch\fcs1 \ab\af2 \ltrch\fcs0 \b\f2\fs22\cf5\lang2052\langfe2052\kerning0\langnp2052\insrsid9055683 \\
\hich\af2\dbch\af31505\loch\f2 CR\\LF}{\rtlch\fcs1 \ab\af2 \ltrch\fcs0 \b\f2\fs22\cf2\lang2052\langfe2052\kerning0\langnp2052\insrsid9055683 \hich\af2\dbch\af31505\loch\f2 $GPGGA,010246.00,3211.05383,N,11925.27283,E,1,04,5.96,881.3,M,4.3,M,,*68}{
\rtlch\fcs1 \ab\af2 \ltrch\fcs0 \b\f2\fs22\cf5\lang2052\langfe2052\kerning0\langnp2052\insrsid9055683 \\\hich\af2\dbch\af31505\loch\f2 CR\\LF}{\rtlch\fcs1 \ab\af2 \ltrch\fcs0 \b\f2\fs22\cf2\lang2052\langfe2052\kerning0\langnp2052\insrsid9055683 
\hich\af2\dbch\af31505\loch\f2 $GPGSA,A,3\hich\af2\dbch\af31505\loch\f2 ,32,10,24,25,,,,,,,,,10.34,5.96,8.45*36}{\rtlch\fcs1 \ab\af2 \ltrch\fcs0 \b\f2\fs22\cf5\lang2052\langfe2052\kerning0\langnp2052\insrsid9055683 \\\hich\af2\dbch\af31505\loch\f2 CR\\LF}
{\rtlch\fcs1 \ab\af2 \ltrch\fcs0 \b\f2\fs22\cf2\lang2052\langfe2052\kerning0\langnp2052\insrsid9055683 \hich\af2\dbch\af31505\loch\f2 $GPGSV,2,1,07,10,38,318,43,18,72,328,,20,45,128,15,21,41,225,17*76}{\rtlch\fcs1 \ab\af2 \ltrch\fcs0 
\b\f2\fs22\cf5\lang2052\langfe2052\kerning0\langnp2052\insrsid9055683 \\\hich\af2\dbch\af31505\loch\f2 CR\\LF}{\rtlch\fcs1 \ab\af2 \ltrch\fcs0 \b\f2\fs22\cf2\lang2052\langfe2052\kerning0\langnp2052\insrsid9055683 \hich\af2\dbch\af31505\loch\f2 
$GPGSV,2,2,07,24,68,049,29,25,09,169,29,32,19,277,29*4B}{\rtlch\fcs1 \ab\af2 \ltrch\fcs0 \b\f2\fs22\cf5\lang2052\langfe2052\kerning0\langnp2052\insrsid9055683 \\\hich\af2\dbch\af31505\loch\f2 CR\\LF}{\rtlch\fcs1 \ab\af2 \ltrch\fcs0 
\b\f2\fs22\cf2\lang2052\langfe2052\kerning0\langnp2052\insrsid9055683 \hich\af2\dbch\af31505\loch\f2 $GPGLL,3211.05383,N,11925.27283,E,010246.00,A,A*66}{\rtlch\fcs1 \ab\af2 \ltrch\fcs0 \b\f2\fs22\cf5\lang2052\langfe2052\kerning0\langnp2052\insrsid9055683 
\\\hich\af2\dbch\af31505\loch\f2 CR\\LF}{\rtlch\fcs1 \ab\af2 \ltrch\fcs0 \b\f2\fs22\cf2\lang2052\langfe2052\kerning0\langnp2052\insrsid9055683 \hich\af2\dbch\af31505\loch\f2 $GPRMC,010247.00,A,321\hich\af2\dbch\af31505\loch\f2 
1.05331,N,11925.27233,E,0.989,,270218,,,A*7A}{\rtlch\fcs1 \ab\af2 \ltrch\fcs0 \b\f2\fs22\cf5\lang2052\langfe2052\kerning0\langnp2052\insrsid9055683 \\\hich\af2\dbch\af31505\loch\f2 CR\\LF}{\rtlch\fcs1 \ab\af2 \ltrch\fcs0 
\b\f2\fs22\cf2\lang2052\langfe2052\kerning0\langnp2052\insrsid9055683 \hich\af2\dbch\af31505\loch\f2 $GPVTG,,T,,M,0.989,N,1.831,K,A*20}{\rtlch\fcs1 \ab\af2 \ltrch\fcs0 \b\f2\fs22\cf5\lang2052\langfe2052\kerning0\langnp2052\insrsid9055683 \\
\hich\af2\dbch\af31505\loch\f2 CR\\LF}{\rtlch\fcs1 \ab\af2 \ltrch\fcs0 \b\f2\fs22\cf2\lang2052\langfe2052\kerning0\langnp2052\insrsid9055683 \hich\af2\dbch\af31505\loch\f2 $GPGGA,010247.00,3211.05331,N,11925.27233,E,1,04,5.97,883.3,M,4.3,M,,*68}{
\rtlch\fcs1 \ab\af2 \ltrch\fcs0 \b\f2\fs22\cf5\lang2052\langfe2052\kerning0\langnp2052\insrsid9055683 \\\hich\af2\dbch\af31505\loch\f2 CR\\LF}{\rtlch\fcs1 \ab\af2 \ltrch\fcs0 \b\f2\fs22\cf2\lang2052\langfe2052\kerning0\langnp2052\insrsid9055683 
\hich\af2\dbch\af31505\loch\f2 $GPGSA,A,3,32,10,24,25,,,,,,,,,10.35,5.97,8.46*35}{\rtlch\fcs1 \ab\af2 \ltrch\fcs0 \b\f2\fs22\cf5\lang2052\langfe2052\kerning0\langnp2052\insrsid9055683 \\\hich\af2\dbch\af31505\loch\f2 CR\\LF}{\rtlch\fcs1 \ab\af2 
\ltrch\fcs0 \b\f2\fs22\cf2\lang2052\langfe2052\kerning0\langnp2052\insrsid9055683 \hich\af2\dbch\af31505\loch\f2 $GPGSV,2,1,07,10,38,318,44,18,72,328,,20,45,128,16,21,41,225,18*7D}{\rtlch\fcs1 \ab\af2 \ltrch\fcs0 
\b\f2\fs22\cf5\lang2052\langfe2052\kerning0\langnp2052\insrsid9055683 \\\hich\af2\dbch\af31505\loch\f2 CR\\LF}{\rtlch\fcs1 \ab\af2 \ltrch\fcs0 \b\f2\fs22\cf2\lang2052\langfe2052\kerning0\langnp2052\insrsid9055683 \hich\af2\dbch\af31505\loch\f2 
$GPGSV,2,2,07,24,68,049,30,25,09,169,32,32,19,277,29*49}{\rtlch\fcs1 \ab\af2 \ltrch\fcs0 \b\f2\fs22\cf5\lang2052\langfe2052\kerning0\langnp2052\insrsid9055683 \\\hich\af2\dbch\af31505\loch\f2 CR\\LF}{\rtlch\fcs1 \ab\af2 \ltrch\fcs0 
\b\f2\fs22\cf2\lang2052\langfe2052\kerning0\langnp2052\insrsid9055683 \hich\af2\dbch\af31505\loch\f2 $GPGLL,3211.05331,N,11925.27233,E,010247.00,A,A*65}{\rtlch\fcs1 \ab\af2 \ltrch\fcs0 \b\f2\fs22\cf5\lang2052\langfe2052\kerning0\langnp2052\insrsid9055683 
\\\hich\af2\dbch\af31505\loch\f2 CR\\LF}{\rtlch\fcs1 \ab\af2 \ltrch\fcs0 \b\f2\fs22\cf2\lang2052\langfe2052\kerning0\langnp2052\insrsid9055683 \hich\af2\dbch\af31505\loch\f2 $GPRMC,010248.00,A,3211.05284,N,11925.27184,E,0.707,,270218,,,A*7D}{\rtlch\fcs1 
\ab\af2 \ltrch\fcs0 \b\f2\fs22\cf5\lang2052\langfe2052\kerning0\langnp2052\insrsid9055683 \\\hich\af2\dbch\af31505\loch\f2 CR\\LF}{\rtlch\fcs1 \ab\af2 \ltrch\fcs0 \b\f2\fs22\cf2\lang2052\langfe2052\kerning0\langnp2052\insrsid9055683 
\hich\af2\dbch\af31505\loch\f2 $GPVTG,,T,,M,0.707,N,1.309,K,A*28}{\rtlch\fcs1 \ab\af2 \ltrch\fcs0 \b\f2\fs22\cf5\lang2052\langfe2052\kerning0\langnp2052\insrsid9055683 \\\hich\af2\dbch\af31505\loch\f2 CR\\LF}{\rtlch\fcs1 \ab\af2 \ltrch\fcs0 
\b\f2\fs22\cf2\lang2052\langfe2052\kerning0\langnp2052\insrsid9055683 \hich\af2\dbch\af31505\loch\f2 $GPGGA,010248.00,3211.05284,N,11925.27184,E,1,04,5.97,885.2,M,4.3,M,,*60}{\rtlch\fcs1 \ab\af2 \ltrch\fcs0 
\b\f2\fs22\cf5\lang2052\langfe2052\kerning0\langnp2052\insrsid9055683 \\\hich\af2\dbch\af31505\loch\f2 CR\\LF}{\rtlch\fcs1 \ab\af2 \ltrch\fcs0 \b\f2\fs22\cf2\lang2052\langfe2052\kerning0\langnp2052\insrsid9055683 \hich\af2\dbch\af31505\loch\f2 
$GPGSA,A,3,32,10,24,25,,,,,,,,,10.36,5.97,8.46*36}{\rtlch\fcs1 \ab\af2 \ltrch\fcs0 \b\f2\fs22\cf5\lang2052\langfe2052\kerning0\langnp2052\insrsid9055683 \\\hich\af2\dbch\af31505\loch\f2 CR\\LF}{\rtlch\fcs1 \ab\af2 \ltrch\fcs0 
\b\f2\fs22\cf2\lang2052\langfe2052\kerning0\langnp2052\insrsid9055683 \hich\af2\dbch\af31505\loch\f2 $GPGSV,2,1,07,10,38,318,43,18,72,328,,20,45,128,16,21,41,225,16*74}{\rtlch\fcs1 \ab\af2 \ltrch\fcs0 
\b\f2\fs22\cf5\lang2052\langfe2052\kerning0\langnp2052\insrsid9055683 \\\hich\af2\dbch\af31505\loch\f2 CR\\LF}{\rtlch\fcs1 \ab\af2 \ltrch\fcs0 \b\f2\fs22\cf2\lang2052\langfe2052\kerning0\langnp2052\insrsid9055683 \hich\af2\dbch\af31505\loch\f2 $GPGSV,
\hich\af2\dbch\af31505\loch\f2 2,2,07,24,68,049,30,25,09,169,32,32,19,277,30*41}{\rtlch\fcs1 \ab\af2 \ltrch\fcs0 \b\f2\fs22\cf5\lang2052\langfe2052\kerning0\langnp2052\insrsid9055683 \\\hich\af2\dbch\af31505\loch\f2 CR\\LF}{\rtlch\fcs1 \ab\af2 
\ltrch\fcs0 \b\f2\fs22\cf2\lang2052\langfe2052\kerning0\langnp2052\insrsid9055683 \hich\af2\dbch\af31505\loch\f2 $GPGLL,3211.05284,N,11925.27184,E,010248.00,A,A*6A}{\rtlch\fcs1 \ab\af2 \ltrch\fcs0 
\b\f2\fs22\cf5\lang2052\langfe2052\kerning0\langnp2052\insrsid9055683 \\\hich\af2\dbch\af31505\loch\f2 CR\\LF}{\rtlch\fcs1 \ab\af2 \ltrch\fcs0 \b\f2\fs22\cf2\lang2052\langfe2052\kerning0\langnp2052\insrsid9055683 \hich\af2\dbch\af31505\loch\f2 
$GPRMC,010249.00,A,3211.05254,N,11925.27150,E,0.765,,270218,,,A*7C}{\rtlch\fcs1 \ab\af2 \ltrch\fcs0 \b\f2\fs22\cf5\lang2052\langfe2052\kerning0\langnp2052\insrsid9055683 \\\hich\af2\dbch\af31505\loch\f2 CR\\LF}{\rtlch\fcs1 \ab\af2 \ltrch\fcs0 
\b\f2\fs22\cf2\lang2052\langfe2052\kerning0\langnp2052\insrsid9055683 \hich\af2\dbch\af31505\loch\f2 $GPVTG,,T,,M,0.765,N,1.417,K,A*24}{\rtlch\fcs1 \ab\af2 \ltrch\fcs0 \b\f2\fs22\cf5\lang2052\langfe2052\kerning0\langnp2052\insrsid9055683 \\
\hich\af2\dbch\af31505\loch\f2 CR\\LF}{\rtlch\fcs1 \ab\af2 \ltrch\fcs0 \b\f2\fs22\cf2\lang2052\langfe2052\kerning0\langnp2052\insrsid9055683 \hich\af2\dbch\af31505\loch\f2 $GPGGA,010249.00,3211.05254,N,11925\hich\af2\dbch\af31505\loch\f2 
.27150,E,1,04,5.98,886.2,M,4.3,M,,*69}{\rtlch\fcs1 \ab\af2 \ltrch\fcs0 \b\f2\fs22\cf5\lang2052\langfe2052\kerning0\langnp2052\insrsid9055683 \\\hich\af2\dbch\af31505\loch\f2 CR\\LF}{\rtlch\fcs1 \ab\af2 \ltrch\fcs0 
\b\f2\fs22\cf2\lang2052\langfe2052\kerning0\langnp2052\insrsid9055683 \hich\af2\dbch\af31505\loch\f2 $GPGSA,A,3,32,10,24,25,,,,,,,,,10.37,5.98,8.47*39}{\rtlch\fcs1 \ab\af2 \ltrch\fcs0 \b\f2\fs22\cf5\lang2052\langfe2052\kerning0\langnp2052\insrsid9055683 
\\\hich\af2\dbch\af31505\loch\f2 CR\\LF}{\rtlch\fcs1 \ab\af2 \ltrch\fcs0 \b\f2\fs22\cf2\lang2052\langfe2052\kerning0\langnp2052\insrsid9055683 \hich\af2\dbch\af31505\loch\f2 $GPGSV,2,1,07,10,38,318,44,18,72,328,,20,45,128,16,21,41,225,15*70}{\rtlch\fcs1 
\ab\af2 \ltrch\fcs0 \b\f2\fs22\cf5\lang2052\langfe2052\kerning0\langnp2052\insrsid9055683 \\\hich\af2\dbch\af31505\loch\f2 CR\\LF}{\rtlch\fcs1 \ab\af2 \ltrch\fcs0 \b\f2\fs22\cf2\lang2052\langfe2052\kerning0\langnp2052\insrsid9055683 
\hich\af2\dbch\af31505\loch\f2 $GPGSV,2,2,07,24,68,049,31,25,09,169,32,32,19,277,30*40}{\rtlch\fcs1 \ab\af2 \ltrch\fcs0 \b\f2\fs22\cf5\lang2052\langfe2052\kerning0\langnp2052\insrsid9055683 \\\hich\af2\dbch\af31505\loch\f2 CR\\LF}{\rtlch\fcs1 \ab\af2 
\ltrch\fcs0 \b\f2\fs22\cf2\lang2052\langfe2052\kerning0\langnp2052\insrsid9055683 \hich\af2\dbch\af31505\loch\f2 $GPGLL,3211.05254,N,11925\hich\af2\dbch\af31505\loch\f2 .27150,E,010249.00,A,A*6F}{\rtlch\fcs1 \ab\af2 \ltrch\fcs0 
\b\f2\fs22\cf5\lang2052\langfe2052\kerning0\langnp2052\insrsid9055683 \\\hich\af2\dbch\af31505\loch\f2 CR\\LF}{\rtlch\fcs1 \ab\af2 \ltrch\fcs0 \b\f2\fs22\cf2\lang2052\langfe2052\kerning0\langnp2052\insrsid9055683 \hich\af2\dbch\af31505\loch\f2 
$GPRMC,010250.00,A,3211.05201,N,11925.27093,E,0.879,,270218,,,A*78}{\rtlch\fcs1 \ab\af2 \ltrch\fcs0 \b\f2\fs22\cf5\lang2052\langfe2052\kerning0\langnp2052\insrsid9055683 \\\hich\af2\dbch\af31505\loch\f2 CR\\LF}{\rtlch\fcs1 \ab\af2 \ltrch\fcs0 
\b\f2\fs22\cf2\lang2052\langfe2052\kerning0\langnp2052\insrsid9055683 \hich\af2\dbch\af31505\loch\f2 $GPVTG,,T,,M,0.879,N,1.628,K,A*28}{\rtlch\fcs1 \ab\af2 \ltrch\fcs0 \b\f2\fs22\cf5\lang2052\langfe2052\kerning0\langnp2052\insrsid9055683 \\
\hich\af2\dbch\af31505\loch\f2 CR\\LF}{\rtlch\fcs1 \ab\af2 \ltrch\fcs0 \b\f2\fs22\cf2\lang2052\langfe2052\kerning0\langnp2052\insrsid9055683 \hich\af2\dbch\af31505\loch\f2 $GPGGA,010250.00,3211.05201,N,11925.27093,E,1,04,5.99,888.4,M,4.3,M,,*66}{
\rtlch\fcs1 \ab\af2 \ltrch\fcs0 \b\f2\fs22\cf5\lang2052\langfe2052\kerning0\langnp2052\insrsid9055683 \\\hich\af2\dbch\af31505\loch\f2 CR\\LF}{\rtlch\fcs1 \ab\af2 \ltrch\fcs0 \b\f2\fs22\cf2\lang2052\langfe2052\kerning0\langnp2052\insrsid9055683 
\hich\af2\dbch\af31505\loch\f2 $GPGSA,A,3,32,10,24,25,,,,,,,,,10.38\hich\af2\dbch\af31505\loch\f2 ,5.99,8.48*38}{\rtlch\fcs1 \ab\af2 \ltrch\fcs0 \b\f2\fs22\cf5\lang2052\langfe2052\kerning0\langnp2052\insrsid9055683 \\\hich\af2\dbch\af31505\loch\f2 CR\\LF}
{\rtlch\fcs1 \ab\af2 \ltrch\fcs0 \b\f2\fs22\cf2\lang2052\langfe2052\kerning0\langnp2052\insrsid9055683 \hich\af2\dbch\af31505\loch\f2 $GPGSV,2,1,07,10,38,318,44,18,72,328,,20,45,128,17,21,41,225,15*71}{\rtlch\fcs1 \ab\af2 \ltrch\fcs0 
\b\f2\fs22\cf5\lang2052\langfe2052\kerning0\langnp2052\insrsid9055683 \\\hich\af2\dbch\af31505\loch\f2 CR\\LF}{\rtlch\fcs1 \ab\af2 \ltrch\fcs0 \b\f2\fs22\cf2\lang2052\langfe2052\kerning0\langnp2052\insrsid9055683 \hich\af2\dbch\af31505\loch\f2 
$GPGSV,2,2,07,24,68,049,30,25,09,169,31,32,19,277,30*42}{\rtlch\fcs1 \ab\af2 \ltrch\fcs0 \b\f2\fs22\cf5\lang2052\langfe2052\kerning0\langnp2052\insrsid9055683 \\\hich\af2\dbch\af31505\loch\f2 CR\\LF}{\rtlch\fcs1 \ab\af2 \ltrch\fcs0 
\b\f2\fs22\cf2\lang2052\langfe2052\kerning0\langnp2052\insrsid9055683 \hich\af2\dbch\af31505\loch\f2 $GPGLL,3211.05201,N,11925.27093,E,010250.00,A,A*69}{\rtlch\fcs1 \ab\af2 \ltrch\fcs0 \b\f2\fs22\cf5\lang2052\langfe2052\kerning0\langnp2052\insrsid9055683 
\\\hich\af2\dbch\af31505\loch\f2 CR\\LF}{\rtlch\fcs1 \ab\af2 \ltrch\fcs0 \b\f2\fs22\cf2\lang2052\langfe2052\kerning0\langnp2052\insrsid9055683 \hich\af2\dbch\af31505\loch\f2 $GPRMC,010251.00,A,3211.05146,N,11925.27041,E,1.\hich\af2\dbch\af31505\loch\f2 
